{"Centers":[{"Name":"Beverly Arena","Address":"680 Hwy 8","City":"Rockton","Province":"Ontario","Country":"Canada","Phone":"519-647-2722","lng":-80.114483,"lat":43.296831},{"Name":"Carlisle Community Centre & Arena","Address":"1496 Centre Road","City":"Carlisle","Province":"Ontario","Country":"Canada","Phone":"905-689-7283","lng":-79.982511,"lat":43.3955976},{"Name":"Chedoke Twin Pad Arena","Address":"91 Chedmac Dr.","City":"Hamilton","Province":"Ontario","Country":"Canada","Phone":"905-546-2429","lng":-79.9206345,"lat":43.2384204},{"Name":"Coronation Arena and Pool","Address":"81 Macklin St. North","City":"Hamilton","Province":"Ontario","Country":"Canada","Phone":"905-546-3109","lng":-79.8960863,"lat":43.2635111},{"Name":"Eastwood Arena","Address":"111 Burlington St. East","City":"Hamilton","Province":"Ontario","Country":"Canada","Phone":"905-546-3152","lng":-79.8545791,"lat":43.2711252},{"Name":"Glanbrook Arena & Auditorium","Address":"4300 Binbrook Road","City":"Binbrook","Province":"Ontario","Country":"Canada","Phone":"905-692-9331","lng":-79.83829,"lat":43.128598},{"Name":"Inch Park Arena & Pool","Address":"400 Queensdale Ave.","City":"Hamilton","Province":"Ontario","Country":"Canada","Phone":"905-546-4922","lng":-79.8591217,"lat":43.237403},{"Name":"Lawfield Arena","Address":"150 Folkstone Ave.","City":"Hamilton","Province":"Ontario","Country":"Canada","Phone":"905-546-4923","lng":-79.8510097,"lat":43.2137832},{"Name":"Market Street (J.L. Grightmire) Arena","Address":"35 Market St. South","City":"Dundas","Province":"Ontario","Country":"Canada","Phone":"905-540-6678","lng":-79.9628107,"lat":43.2660282},{"Name":"Mohawk 4 Ice Centre","Address":"710 Mountain Brow Blvd.","City":"Hamilton","Province":"Ontario","Country":"Canada","Phone":"905-318-5111","lng":-79.816814,"lat":43.2096298},{"Name":"Morgan Firestone Arena","Address":"385 Jerseyville Road West","City":"Ancaster","Province":"Ontario","Country":"Canada","Phone":"905-546-3769","lng":-80.0064358,"lat":43.2168808},{"Name":"Mountain (Dave Andreychuk) Arena","Address":"25 Hester St.","City":"Hamilton","Province":"Ontario","Country":"Canada","Phone":"905-546-4938","lng":-79.8808753,"lat":43.2245537},{"Name":"North Wentworth Twin-Pad Arena","Address":"27 Hwy 5","City":"Flamborough","Province":"Ontario","Country":"Canada","Phone":"905-689-6666","lng":-80.0237574,"lat":43.2885612},{"Name":"Olympic Arena","Address":"70 Olympic Dr.","City":"Dundas","Province":"Ontario","Country":"Canada","Phone":"905-540-6686","lng":-79.936793,"lat":43.2705669},{"Name":"Parkdale (Pat Quinn) Arena and Pool","Address":"1770 Main St. East","City":"Hamilton","Province":"Ontario","Country":"Canada","Phone":"905-546-4785","lng":-79.795547,"lat":43.237465},{"Name":"Rosedale Arena and Pool","Address":"100 Greenhill Ave.","City":"Hamilton","Province":"Ontario","Country":"Canada","Phone":"905-546-4805","lng":-79.8072645,"lat":43.2199629},{"Name":"Saltfleet Arena","Address":"24 Sherwood Park Road","City":"Stoney Creek","Province":"Ontario","Country":"Canada","Phone":"905-643-3883","lng":-79.7039356,"lat":43.2186466},{"Name":"Scott Park Arena","Address":"876 Cannon St. East","City":"Hamilton","Province":"Ontario","Country":"Canada","Phone":"905-546-4919","lng":-79.8317504,"lat":43.2514993},{"Name":"Spring Valley Arena","Address":"29 Orchard Dr.","City":"Ancaster","Province":"Ontario","Country":"Canada","Phone":"905-648-4404","lng":-79.9981055,"lat":43.2164679},{"Name":"Stoney Creek Arena","Address":"37 King St. West","City":"Stoney Creek","Province":"Ontario","Country":"Canada","Phone":"905-662-2426","lng":-79.7633904,"lat":43.2181539},{"Name":"Valley Park Arena & Rec Centre","Address":"970 Paramount Dr.","City":"Stoney Creek","Province":"Ontario","Country":"Canada","Phone":"905-573-3600","lng":-79.7966196,"lat":43.1945227}],"Cities":["All","Rockton","Carlisle","Hamilton","Binbrook","Dundas","Ancaster","Flamborough","Stoney Creek"]}