{"Centers":[{"Name":"Chedoke Twin Pad Arena","Address":"91 Chedmac Dr.","City":"Hamilton","Province":"Ontario","Country":"Canada","Phone":"905-546-2429","lng":-79.9206345,"lat":43.2384204},{"Name":"Coronation Arena and Pool","Address":"81 Macklin St. North","City":"Hamilton","Province":"Ontario","Country":"Canada","Phone":"905-546-3109","lng":-79.8960863,"lat":43.2635111},{"Name":"Eastwood Arena","Address":"111 Burlington St. East","City":"Hamilton","Province":"Ontario","Country":"Canada","Phone":"905-546-3152","lng":-79.8545791,"lat":43.2711252},{"Name":"Inch Park Arena & Pool","Address":"400 Queensdale Ave.","City":"Hamilton","Province":"Ontario","Country":"Canada","Phone":"905-546-4922","lng":-79.8591217,"lat":43.237403},{"Name":"Lawfield Arena","Address":"150 Folkstone Ave.","City":"Hamilton","Province":"Ontario","Country":"Canada","Phone":"905-546-4923","lng":-79.8510097,"lat":43.2137832},{"Name":"Mohawk 4 Ice Centre","Address":"710 Mountain Brow Blvd.","City":"Hamilton","Province":"Ontario","Country":"Canada","Phone":"905-318-5111","lng":-79.816814,"lat":43.2096298},{"Name":"Mountain (Dave Andreychuk) Arena","Address":"25 Hester St.","City":"Hamilton","Province":"Ontario","Country":"Canada","Phone":"905-546-4938","lng":-79.8808753,"lat":43.2245537},{"Name":"Parkdale (Pat Quinn) Arena and Pool","Address":"1770 Main St. East","City":"Hamilton","Province":"Ontario","Country":"Canada","Phone":"905-546-4785","lng":-79.795547,"lat":43.237465},{"Name":"Rosedale Arena and Pool","Address":"100 Greenhill Ave.","City":"Hamilton","Province":"Ontario","Country":"Canada","Phone":"905-546-4805","lng":-79.8072645,"lat":43.2199629},{"Name":"Scott Park Arena","Address":"876 Cannon St. East","City":"Hamilton","Province":"Ontario","Country":"Canada","Phone":"905-546-4919","lng":-79.8317504,"lat":43.2514993}],"Cities":["All","Rockton","Carlisle","Hamilton","Binbrook","Dundas","Ancaster","Flamborough","Stoney Creek"]}